{"_id":{"$oid":"5bacec4cee00c4461096fade"},"Id":"2","Name":"Albèniz Plaça","Tag":"albèniz-plaça","Address":"Pl. Jordi de Sant Jordi s/n   Girona   (Girona) ","Telephone":"972410110","Url":"https://cartelera.elperiodico.com/cines/girona/albeniz-placa-002.html","NightPasses ":"","MorningPasses ":"","CheapDay ":"","OnlineTickets ":"","MapUrl ":"\"https://maps.google.com/maps/api/staticmap?zoom=13&size=478x220&markers=color:red|41.984581,2.822092&mobile=true&sensor=false\" alt=\"googlemaps - Gran Via de les Corts Catalanes. 08001 Barcelona\"","TownId":"2535","Town":"                                                Girona                                                 (Girona)                                            ","Latitude":"41.984581","Longitude":"2.822092"}
{"_id":{"$oid":"5bacec4cee00c4461096fadf"},"Id":"4","Name":"Amposta","Tag":"amposta","Address":"Berlín s/n (Pol.ind. Les Tosses)   Amposta   (Tarragona) ","Telephone":"902506262","Url":"https://cartelera.elperiodico.com/cines/amposta/amposta-004.html","NightPasses ":"VSP","MorningPasses ":"","CheapDay ":"X 5,50","OnlineTickets ":"","MapUrl ":"\"https://maps.google.com/maps/api/staticmap?zoom=13&size=478x220&markers=color:red|40.704929,0.558801&mobile=true&sensor=false\" alt=\"googlemaps - Gran Via de les Corts Catalanes. 08001 Barcelona\"","TownId":"6369","Town":"                                                Amposta                                                 (Tarragona)                                            ","Latitude":"40.704929","Longitude":"0.558801"}
{"_id":{"$oid":"5bacec4cee00c4461096fae0"},"Id":"14","Name":"Balmes Multicines","Tag":"balmes-multicines","Address":"Carrer Balmes, 422-424   Barcelona   (Barcelona) ","Telephone":"90242243","Url":"https://cartelera.elperiodico.com/cines/barcelona/balmes-multicines-133.html","NightPasses ":"VS","MorningPasses ":"","CheapDay ":"","OnlineTickets ":"","MapUrl ":"","TownId":"892","Town":"                                                Barcelona                                                 (Barcelona)                                            ","Latitude":"","Longitude":""}
{"_id":{"$oid":"5bacec4cee00c4461096fae1"},"Id":"15","Name":"Boliche","Tag":"boliche","Address":"Av. Diagonal 508-510   Barcelona   (Barcelona) ","Telephone":"","Url":"https://cartelera.elperiodico.com/cines/barcelona/boliche-127.html","NightPasses ":"","MorningPasses ":"","CheapDay ":"L 6,00?","OnlineTickets ":"Servicaixa","MapUrl ":"","TownId":"892","Town":"                                                Barcelona                                                 (Barcelona)                                            ","Latitude":"","Longitude":""}
{"_id":{"$oid":"5bacec4cee00c4461096fae2"},"Id":"23","Name":"Casal-Ciine Club Vilafranca","Tag":"casal-ciine-club-vilafranca","Address":"Rambla de Nostra Senyora, 35-37   Vilafranca del Penedès   (Barcelona) ","Telephone":"600716688","Url":"https://cartelera.elperiodico.com/cines/vilafranca-del-penedas/casal-ciine-club-vilafranca-096.html","NightPasses ":"","MorningPasses ":"","CheapDay ":"","OnlineTickets ":"","MapUrl ":"","TownId":"1173","Town":"                                                Vilafranca del Penedès                                                 (Barcelona)                                            ","Latitude":"","Longitude":""}
{"_id":{"$oid":"5bacec4cee00c4461096fae3"},"Id":"28","Name":"CineBaix","Tag":"cinebaix","Address":"Joan Batllori 21   Sant Feliu de Llobregat   (Barcelona) ","Telephone":"936661859","Url":"https://cartelera.elperiodico.com/cines/sant-feliu-de-llobregat/cinebaix-011.html","NightPasses ":"","MorningPasses ":"D","CheapDay ":"","OnlineTickets ":"","MapUrl ":"\"https://maps.google.com/maps/api/staticmap?zoom=13&size=478x220&markers=color:red|41.381973,2.045206&mobile=true&sensor=false\" alt=\"googlemaps - Gran Via de les Corts Catalanes. 08001 Barcelona\"","TownId":"1083","Town":"                                                Sant Feliu de Llobregat                                                 (Barcelona)                                            ","Latitude":"41.381973","Longitude":"2.045206"}
{"_id":{"$oid":"5bacec4cee00c4461096fae4"},"Id":"39","Name":"Cinema Catalunya","Tag":"cinema-catalunya","Address":"Sant Pere 9   Terrassa   (Barcelona) ","Telephone":"937885376","Url":"https://cartelera.elperiodico.com/cines/terrassa/cinema-catalunya-013.html","NightPasses ":"","MorningPasses ":"","CheapDay ":"J 4,20","OnlineTickets ":"","MapUrl ":"\"https://maps.google.com/maps/api/staticmap?zoom=13&size=478x220&markers=color:red|41.563053,2.010946&mobile=true&sensor=false\" alt=\"googlemaps - Gran Via de les Corts Catalanes. 08001 Barcelona\"","TownId":"1152","Town":"                                                Terrassa                                                 (Barcelona)                                            ","Latitude":"41.563053","Longitude":"2.010946"}
{"_id":{"$oid":"5bacec4cee00c4461096fae5"},"Id":"44","Name":"Cinema Maldà","Tag":"cinema-maldà","Address":"Pi 5   Barcelona   (Barcelona) ","Telephone":"933019350","Url":"https://cartelera.elperiodico.com/cines/barcelona/cinema-malda-086.html","NightPasses ":"","MorningPasses ":"","CheapDay ":"L 5,00","OnlineTickets ":"","MapUrl ":"\"https://maps.google.com/maps/api/staticmap?zoom=13&size=478x220&markers=color:red|41.381767,2.173448&mobile=true&sensor=false\" alt=\"googlemaps - Gran Via de les Corts Catalanes. 08001 Barcelona\"","TownId":"892","Town":"                                                Barcelona                                                 (Barcelona)                                            ","Latitude":"41.381767","Longitude":"2.173448"}
{"_id":{"$oid":"5bacec4cee00c4461096fae6"},"Id":"45","Name":"Cinema Montgrí","Tag":"cinema-montgrí","Address":"Pl. Ernest Lluch, s/n   Torroella de Montgrí   (Girona) ","Telephone":"","Url":"https://cartelera.elperiodico.com/cines/torroella-de-montgra-/cinema-montgri-142.html","NightPasses ":"","MorningPasses ":"","CheapDay ":"","OnlineTickets ":"","MapUrl ":"","TownId":"2648","Town":"                                                Torroella de Montgrí                                                 (Girona)                                            ","Latitude":"","Longitude":""}
{"_id":{"$oid":"5bacec4cee00c4461096fae7"},"Id":"50","Name":"Cinema Ribes","Tag":"cinema-ribes","Address":"Plaça Marcer, 7   Sant Pere de Ribes   (Barcelona) ","Telephone":"677825205","Url":"https://cartelera.elperiodico.com/cines/sant-pere-de-ribes/cinema-ribes-152.html","NightPasses ":"","MorningPasses ":"","CheapDay ":"","OnlineTickets ":"","MapUrl ":"","TownId":"1103","Town":"                                                Sant Pere de Ribes                                                 (Barcelona)                                            ","Latitude":"","Longitude":""}
{"_id":{"$oid":"5bacec4cee00c4461096fae8"},"Id":"52","Name":"Cinema Truffaut","Tag":"cinema-truffaut","Address":"Portal nou 7   Girona   (Girona) ","Telephone":"972225044","Url":"https://cartelera.elperiodico.com/cines/girona/cinema-truffaut-014.html","NightPasses ":"","MorningPasses ":"","CheapDay ":"J 4,30","OnlineTickets ":"","MapUrl ":"\"https://maps.google.com/maps/api/staticmap?zoom=13&size=478x220&markers=color:red|41.982071,2.825847&mobile=true&sensor=false\" alt=\"googlemaps - Gran Via de les Corts Catalanes. 08001 Barcelona\"","TownId":"2535","Town":"                                                Girona                                                 (Girona)                                            ","Latitude":"41.982071","Longitude":"2.825847"}
{"_id":{"$oid":"5bacec4cee00c4461096fae9"},"Id":"56","Name":"Cinemes Full HD","Tag":"cinemes-full-hd","Address":"Avinguda Baix Llobregat   Cornellà de Llobregat   (Barcelona) ","Telephone":"934719272","Url":"https://cartelera.elperiodico.com/cines/cornella-de-llobregat/cinemes-full-hd-100.html","NightPasses ":"VSP","MorningPasses ":"DF","CheapDay ":"M 5,90","OnlineTickets ":"","MapUrl ":"","TownId":"948","Town":"                                                Cornellà de Llobregat                                                 (Barcelona)                                            ","Latitude":"","Longitude":""}
{"_id":{"$oid":"5bacec4cee00c4461096faea"},"Id":"57","Name":"Cinemes Girona","Tag":"cinemes-girona","Address":"C/ Girona, 175   Barcelona   (Barcelona) ","Telephone":"902332211","Url":"https://cartelera.elperiodico.com/cines/barcelona/cinemes-girona-085.html","NightPasses ":"","MorningPasses ":"","CheapDay ":"X 5,30","OnlineTickets ":"www.serviticket.com","MapUrl ":"","TownId":"892","Town":"                                                Barcelona                                                 (Barcelona)                                            ","Latitude":"","Longitude":""}
{"_id":{"$oid":"5bacec4cee00c4461096faeb"},"Id":"59","Name":"Cinemes Las Vegas","Tag":"cinemes-las-vegas","Address":"C/ Sant Pau, 44   Figueres   (Girona) ","Telephone":"972 556974- 972 556985","Url":"https://cartelera.elperiodico.com/cines/figueres/cinemes-las-vegas-156.html","NightPasses ":"","MorningPasses ":"","CheapDay ":"","OnlineTickets ":"","MapUrl ":"","TownId":"2522","Town":"                                                Figueres                                                 (Girona)                                            ","Latitude":"","Longitude":""}
{"_id":{"$oid":"5bacec4cee00c4461096faec"},"Id":"62","Name":"Cinemes Roses","Tag":"cinemes-roses","Address":"Gran Via Pau Casals s/n   Roses   (Girona) ","Telephone":"972154646","Url":"https://cartelera.elperiodico.com/cines/roses/cinemes-roses-017.html","NightPasses ":"SF","MorningPasses ":"DF","CheapDay ":"L 3,80","OnlineTickets ":"","MapUrl ":"\"https://maps.google.com/maps/api/staticmap?zoom=13&size=478x220&markers=color:red|42.267883,3.175542&mobile=true&sensor=false\" alt=\"googlemaps - Gran Via de les Corts Catalanes. 08001 Barcelona\"","TownId":"2603","Town":"                                                Roses                                                 (Girona)                                            ","Latitude":"42.267883","Longitude":"3.175542"}
{"_id":{"$oid":"5bacec4cee00c4461096faed"},"Id":"63","Name":"Cinemes Texas","Tag":"cinemes-texas","Address":"c/ Bailèn 205   Barcelona   (Barcelona) ","Telephone":"933848770","Url":"https://cartelera.elperiodico.com/cines/barcelona/cinemes-texas-144.html","NightPasses ":"","MorningPasses ":"D","CheapDay ":"","OnlineTickets ":"","MapUrl ":"","TownId":"892","Town":"                                                Barcelona                                                 (Barcelona)                                            ","Latitude":"","Longitude":""}
{"_id":{"$oid":"5bacec4cee00c4461096faee"},"Id":"67","Name":"Cinesa Diagonal 3D","Tag":"cinesa-diagonal-3d","Address":"Santa Fe de Nou Mèxic, s/n   Barcelona   (Barcelona) ","Telephone":"902333231","Url":"https://cartelera.elperiodico.com/cines/barcelona/cinesa-diagonal-3d-019.html","NightPasses ":"VSP","MorningPasses ":"DF","CheapDay ":"","OnlineTickets ":"Servicaixa","MapUrl ":"\"https://maps.google.com/maps/api/staticmap?zoom=13&size=478x220&markers=color:red|41.394188,2.136600&mobile=true&sensor=false\" alt=\"googlemaps - Gran Via de les Corts Catalanes. 08001 Barcelona\"","TownId":"892","Town":"                                                Barcelona                                                 (Barcelona)                                            ","Latitude":"41.394188","Longitude":"2.136600"}
{"_id":{"$oid":"5bacec4cee00c4461096faef"},"Id":"68","Name":"Cinesa Diagonal Mar","Tag":"cinesa-diagonal-mar","Address":"Avda. Diagonal 3   Barcelona   (Barcelona) ","Telephone":"902333231","Url":"https://cartelera.elperiodico.com/cines/barcelona/cinesa-diagonal-mar-020.html","NightPasses ":"VSP","MorningPasses ":"DF","CheapDay ":"","OnlineTickets ":"Servicaixa","MapUrl ":"\"https://maps.google.com/maps/api/staticmap?zoom=13&size=478x220&markers=color:red|41.411194,2.218954&mobile=true&sensor=false\" alt=\"googlemaps - Gran Via de les Corts Catalanes. 08001 Barcelona\"","TownId":"892","Town":"                                                Barcelona                                                 (Barcelona)                                            ","Latitude":"41.411194","Longitude":"2.218954"}
{"_id":{"$oid":"5bacec4cee00c4461096faf0"},"Id":"69","Name":"Cinesa Heron City","Tag":"cinesa-heron-city","Address":"CC Heron City, Can Dragó, Andreu Nin s/n   Barcelona   (Barcelona) ","Telephone":"902333231","Url":"https://cartelera.elperiodico.com/cines/barcelona/cinesa-heron-city-021.html","NightPasses ":"VSP","MorningPasses ":"SDF","CheapDay ":"X 6,20","OnlineTickets ":"Servicaixa","MapUrl ":"\"https://maps.google.com/maps/api/staticmap?zoom=13&size=478x220&markers=color:red|41.438404,2.179782&mobile=true&sensor=false\" alt=\"googlemaps - Gran Via de les Corts Catalanes. 08001 Barcelona\"","TownId":"892","Town":"                                                Barcelona                                                 (Barcelona)                                            ","Latitude":"41.438404","Longitude":"2.179782"}
{"_id":{"$oid":"5bacec4cee00c4461096faf1"},"Id":"73","Name":"Cinesa Mataró Parc 3D","Tag":"cinesa-mataró-parc-3d","Address":"CC Mataró Parc (Estrasburg 5)   Mataró   (Barcelona) ","Telephone":"902333231","Url":"https://cartelera.elperiodico.com/cines/matara/cinesa-mataro-parc-3d-025.html","NightPasses ":"VSP","MorningPasses ":"SDF","CheapDay ":"X 5,00","OnlineTickets ":"","MapUrl ":"\"https://maps.google.com/maps/api/staticmap?zoom=13&size=478x220&markers=color:red|41.555119,2.432334&mobile=true&sensor=false\" alt=\"googlemaps - Gran Via de les Corts Catalanes. 08001 Barcelona\"","TownId":"998","Town":"                                                Mataró                                                 (Barcelona)                                            ","Latitude":"41.555119","Longitude":"2.432334"}
{"_id":{"$oid":"5bacec4cee00c4461096faf2"},"Id":"77","Name":"Comèdia","Tag":"comèdia","Address":"Pg. de Gràcia 13   Barcelona   (Barcelona) ","Telephone":"933182396","Url":"https://cartelera.elperiodico.com/cines/barcelona/comedia-030.html","NightPasses ":"","MorningPasses ":"","CheapDay ":"X 5,00","OnlineTickets ":"Servicaixa","MapUrl ":"\"https://maps.google.com/maps/api/staticmap?zoom=13&size=478x220&markers=color:red|41.389526,2.167912&mobile=true&sensor=false\" alt=\"googlemaps - Gran Via de les Corts Catalanes. 08001 Barcelona\"","TownId":"892","Town":"                                                Barcelona                                                 (Barcelona)                                            ","Latitude":"41.389526","Longitude":"2.167912"}
{"_id":{"$oid":"5bacec4cee00c4461096faf3"},"Id":"80","Name":"Espai Funatic","Tag":"espai-funatic","Address":"Pi i Margall 26   Lleida   (Lleida) ","Telephone":"902125902","Url":"https://cartelera.elperiodico.com/cines/lleida/espai-funatic-103.html","NightPasses ":"VS","MorningPasses ":"","CheapDay ":"","OnlineTickets ":"","MapUrl ":"","TownId":"3927","Town":"                                                Lleida                                                 (Lleida)                                            ","Latitude":"","Longitude":""}
{"_id":{"$oid":"5bacec4cee00c4461096faf4"},"Id":"82","Name":"Filmax Castelldefels ACEC","Tag":"filmax-castelldefels-acec","Address":"CC Ànec Blau (Av. Canal Olímpic 24)   Castelldefels   (Barcelona) ","Telephone":"902180193","Url":"https://cartelera.elperiodico.com/cines/castelldefels/filmax-castelldefels-acec-032.html","NightPasses ":"VSP","MorningPasses ":"D","CheapDay ":"X 4,60","OnlineTickets ":"","MapUrl ":"\"https://maps.google.com/maps/api/staticmap?zoom=13&size=478x220&markers=color:red|41.277184,1.990156&mobile=true&sensor=false\" alt=\"googlemaps - Gran Via de les Corts Catalanes. 08001 Barcelona\"","TownId":"930","Town":"                                                Castelldefels                                                 (Barcelona)                                            ","Latitude":"41.277184","Longitude":"1.990156"}
{"_id":{"$oid":"5bacec4cee00c4461096faf5"},"Id":"88","Name":"Imperial ACEC","Tag":"imperial-acec","Address":"Pl. Imperial 4   Sabadell   (Barcelona) ","Telephone":"937263233","Url":"https://cartelera.elperiodico.com/cines/sabadell/imperial-acec-037.html","NightPasses ":"","MorningPasses ":"","CheapDay ":"M 4,00","OnlineTickets ":"","MapUrl ":"\"https://maps.google.com/maps/api/staticmap?zoom=13&size=478x220&markers=color:red|41.549480,2.107551&mobile=true&sensor=false\" alt=\"googlemaps - Gran Via de les Corts Catalanes. 08001 Barcelona\"","TownId":"1063","Town":"                                                Sabadell                                                 (Barcelona)                                            ","Latitude":"41.549480","Longitude":"2.107551"}
{"_id":{"$oid":"5bacec4cee00c4461096faf6"},"Id":"89","Name":"JCA Cinemes Alpicat","Tag":"jca-cinemes-alpicat","Address":"Autovia A-2 Sortida 458 Edifici Moviespace   Alpicat   (Lleida) ","Telephone":"973706350","Url":"https://cartelera.elperiodico.com/cines/alpicat/jca-cinemes-alpicat-038.html","NightPasses ":"VSP","MorningPasses ":"","CheapDay ":"","OnlineTickets ":"","MapUrl ":"","TownId":"3837","Town":"                                                Alpicat                                                 (Lleida)                                            ","Latitude":"","Longitude":""}
{"_id":{"$oid":"5bacec4cee00c4461096faf7"},"Id":"91","Name":"JCA Cinemes Valls","Tag":"jca-cinemes-valls","Address":"St. Antoni M. Claret 8   Valls   (Tarragona) ","Telephone":"977602701","Url":"https://cartelera.elperiodico.com/cines/valls/jca-cinemes-valls-040.html","NightPasses ":"VS","MorningPasses ":"SD","CheapDay ":"","OnlineTickets ":"","MapUrl ":"\"https://maps.google.com/maps/api/staticmap?zoom=13&size=478x220&markers=color:red|41.283993,1.250907&mobile=true&sensor=false\" alt=\"googlemaps - Gran Via de les Corts Catalanes. 08001 Barcelona\"","TownId":"6518","Town":"                                                Valls                                                 (Tarragona)                                            ","Latitude":"41.283993","Longitude":"1.250907"}
{"_id":{"$oid":"5bacec4cee00c4461096faf8"},"Id":"108","Name":"Megacine ACEC","Tag":"megacine-acec","Address":"C.C. Magic Badalona. Avenida Salvador Espriu, 2   Badalona   (Barcelona) ","Telephone":"902510500","Url":"https://cartelera.elperiodico.com/cines/badalona/megacine-acec-053.html","NightPasses ":"VSP","MorningPasses ":"D","CheapDay ":"X","OnlineTickets ":"","MapUrl ":"\"https://maps.google.com/maps/api/staticmap?zoom=13&size=478x220&markers=color:red|41.446175,2.232220&mobile=true&sensor=false\" alt=\"googlemaps - Gran Via de les Corts Catalanes. 08001 Barcelona\"","TownId":"886","Town":"                                                Badalona                                                 (Barcelona)                                            ","Latitude":"41.446175","Longitude":"2.232220"}
{"_id":{"$oid":"5bacec4cee00c4461096faf9"},"Id":"109","Name":"Méliès","Tag":"méliès","Address":"Villarroel 102   Barcelona   (Barcelona) ","Telephone":"934510051","Url":"https://cartelera.elperiodico.com/cines/barcelona/melies-054.html","NightPasses ":"","MorningPasses ":"","CheapDay ":"L 4,00","OnlineTickets ":"","MapUrl ":"\"https://maps.google.com/maps/api/staticmap?zoom=13&size=478x220&markers=color:red|41.385132,2.156904&mobile=true&sensor=false\" alt=\"googlemaps - Gran Via de les Corts Catalanes. 08001 Barcelona\"","TownId":"892","Town":"                                                Barcelona                                                 (Barcelona)                                            ","Latitude":"41.385132","Longitude":"2.156904"}
{"_id":{"$oid":"5bacec4cee00c4461096fafa"},"Id":"116","Name":"Multicines Sucre ACEC","Tag":"multicines-sucre-acec","Address":"Recinte firal el Sucre (Llotja 9)   Vic   (Barcelona) ","Telephone":"938832108","Url":"https://cartelera.elperiodico.com/cines/vic/multicines-sucre-acec-058.html","NightPasses ":"SP","MorningPasses ":"DF","CheapDay ":"","OnlineTickets ":"","MapUrl ":"\"https://maps.google.com/maps/api/staticmap?zoom=13&size=478x220&markers=color:red|41.926285,2.246919&mobile=true&sensor=false\" alt=\"googlemaps - Gran Via de les Corts Catalanes. 08001 Barcelona\"","TownId":"1169","Town":"                                                Vic                                                 (Barcelona)                                            ","Latitude":"41.926285","Longitude":"2.246919"}
{"_id":{"$oid":"5bacec4cee00c4461096fafb"},"Id":"118","Name":"Ocine Blanes","Tag":"ocine-blanes","Address":"Carrer ses Falques, 10   Blanes   (Girona) ","Telephone":"972348106","Url":"https://cartelera.elperiodico.com/cines/blanes/ocine-blanes-139.html","NightPasses ":"VS","MorningPasses ":"","CheapDay ":"L 6,00?","OnlineTickets ":"","MapUrl ":"","TownId":"2481","Town":"                                                Blanes                                                 (Girona)                                            ","Latitude":"","Longitude":""}
{"_id":{"$oid":"5bacec4cee00c4461096fafc"},"Id":"120","Name":"Ocine Girona ACEC","Tag":"ocine-girona-acec","Address":"Pont de la Barca 12-14   Girona   (Girona) ","Telephone":"902170831","Url":"https://cartelera.elperiodico.com/cines/girona/ocine-girona-acec-061.html","NightPasses ":"VSP","MorningPasses ":"","CheapDay ":"J","OnlineTickets ":"","MapUrl ":"\"https://maps.google.com/maps/api/staticmap?zoom=13&size=478x220&markers=color:red|41.991665,2.818465&mobile=true&sensor=false\" alt=\"googlemaps - Gran Via de les Corts Catalanes. 08001 Barcelona\"","TownId":"2535","Town":"                                                Girona                                                 (Girona)                                            ","Latitude":"41.991665","Longitude":"2.818465"}
{"_id":{"$oid":"5bacec4cee00c4461096fafd"},"Id":"122","Name":"Ocine Les Gavarres ACEC","Tag":"ocine-les-gavarres-acec","Address":"CC Les Gavarres (Autovía Tarragona-Reus)   Tarragona   (Tarragona) ","Telephone":"902170831","Url":"https://cartelera.elperiodico.com/cines/tarragona/ocine-les-gavarres-acec-063.html","NightPasses ":"VSP","MorningPasses ":"D","CheapDay ":"X 4,30","OnlineTickets ":"","MapUrl ":"\"https://maps.google.com/maps/api/staticmap?zoom=13&size=478x220&markers=color:red|41.104851,1.202703&mobile=true&sensor=false\" alt=\"googlemaps - Gran Via de les Corts Catalanes. 08001 Barcelona\"","TownId":"6505","Town":"                                                Tarragona                                                 (Tarragona)                                            ","Latitude":"41.104851","Longitude":"1.202703"}
{"_id":{"$oid":"5bacec4cee00c4461096fafe"},"Id":"123","Name":"Ocine Platja d'Aro ACEC","Tag":"ocine-platja-d'aro-acec","Address":"Pol. La Bòvila s/n   Castell-Platja d'Aro   (Girona) ","Telephone":"902170831","Url":"https://cartelera.elperiodico.com/cines/castell-platja-daro/ocine-platja-daro-acec-064.html","NightPasses ":"VSP","MorningPasses ":"","CheapDay ":"J","OnlineTickets ":"","MapUrl ":"\"https://maps.google.com/maps/api/staticmap?zoom=13&size=478x220&markers=color:red|41.811138,3.053598&mobile=true&sensor=false\" alt=\"googlemaps - Gran Via de les Corts Catalanes. 08001 Barcelona\"","TownId":"2504","Town":"                                                Castell-Platja d'Aro                                                 (Girona)                                            ","Latitude":"41.811138","Longitude":"3.053598"}
{"_id":{"$oid":"5bacec4cee00c4461096faff"},"Id":"127","Name":"Odeón Multicines Girona","Tag":"odeón-multicines-girona","Address":"972439201   Salt   (Girona) ","Telephone":"972439201","Url":"https://cartelera.elperiodico.com/cines/salt/odeon-multicines-girona-012.html","NightPasses ":"VS","MorningPasses ":"","CheapDay ":"","OnlineTickets ":"","MapUrl ":"\"https://maps.google.com/maps/api/staticmap?zoom=13&size=478x220&markers=color:red|41.966278,2.781944&mobile=true&sensor=false\" alt=\"googlemaps - Gran Via de les Corts Catalanes. 08001 Barcelona\"","TownId":"2606","Town":"                                                Salt                                                 (Girona)                                            ","Latitude":"41.966278","Longitude":"2.781944"}
{"_id":{"$oid":"5bacec4cee00c4461096fb00"},"Id":"130","Name":"Phenomena","Tag":"phenomena","Address":"Sant Antoni Maria Claret 168   Barcelona   (Barcelona) ","Telephone":"","Url":"https://cartelera.elperiodico.com/cines/barcelona/phenomena-146.html","NightPasses ":"","MorningPasses ":"","CheapDay ":"","OnlineTickets ":"","MapUrl ":"","TownId":"892","Town":"                                                Barcelona                                                 (Barcelona)                                            ","Latitude":"","Longitude":""}
{"_id":{"$oid":"5bacec4cee00c4461096fb01"},"Id":"132","Name":"Prado","Tag":"prado","Address":"Francesc Gumà 6   Sitges   (Barcelona) ","Telephone":"938940174","Url":"https://cartelera.elperiodico.com/cines/sitges/prado-069.html","NightPasses ":"VSF","MorningPasses ":"DF","CheapDay ":"","OnlineTickets ":"","MapUrl ":"\"https://maps.google.com/maps/api/staticmap?zoom=13&size=478x220&markers=color:red|41.237911,1.810384&mobile=true&sensor=false\" alt=\"googlemaps - Gran Via de les Corts Catalanes. 08001 Barcelona\"","TownId":"1141","Town":"                                                Sitges                                                 (Barcelona)                                            ","Latitude":"41.237911","Longitude":"1.810384"}
{"_id":{"$oid":"5bacec4cee00c4461096fb02"},"Id":"134","Name":"Rambla de l'Art","Tag":"rambla-de-l'art","Address":"977368838   Cambrils   (Tarragona) ","Telephone":"977368838","Url":"https://cartelera.elperiodico.com/cines/cambrils/rambla-de-lart-137.html","NightPasses ":"","MorningPasses ":"","CheapDay ":"LX 3,90","OnlineTickets ":"","MapUrl ":"","TownId":"6394","Town":"                                                Cambrils                                                 (Tarragona)                                            ","Latitude":"","Longitude":""}
{"_id":{"$oid":"5bacec4cee00c4461096fb03"},"Id":"135","Name":"Renoir Floridablanca","Tag":"renoir-floridablanca","Address":"Floridablanca 135   Barcelona   (Barcelona) ","Telephone":"934263337","Url":"https://cartelera.elperiodico.com/cines/barcelona/renoir-floridablanca-071.html","NightPasses ":"VS","MorningPasses ":"","CheapDay ":"L 4,80","OnlineTickets ":"www.entradas.com","MapUrl ":"\"https://maps.google.com/maps/api/staticmap?zoom=13&size=478x220&markers=color:red|41.381477,2.162440&mobile=true&sensor=false\" alt=\"googlemaps - Gran Via de les Corts Catalanes. 08001 Barcelona\"","TownId":"892","Town":"                                                Barcelona                                                 (Barcelona)                                            ","Latitude":"41.381477","Longitude":"2.162440"}
{"_id":{"$oid":"5bacec4cee00c4461096fb04"},"Id":"137","Name":"Retiro","Tag":"retiro","Address":"Àngel Vidal 17   Sitges   (Barcelona) ","Telephone":"938940137","Url":"https://cartelera.elperiodico.com/cines/sitges/retiro-073.html","NightPasses ":"VSF","MorningPasses ":"DF","CheapDay ":"","OnlineTickets ":"","MapUrl ":"\"https://maps.google.com/maps/api/staticmap?zoom=13&size=478x220&markers=color:red|41.236397,1.810791&mobile=true&sensor=false\" alt=\"googlemaps - Gran Via de les Corts Catalanes. 08001 Barcelona\"","TownId":"1141","Town":"                                                Sitges                                                 (Barcelona)                                            ","Latitude":"41.236397","Longitude":"1.810791"}
{"_id":{"$oid":"5bacec4cee00c4461096fb05"},"Id":"151","Name":"Verdi Park","Tag":"verdi-park","Address":"Torrijos 49   Barcelona   (Barcelona) ","Telephone":"932387990","Url":"https://cartelera.elperiodico.com/cines/barcelona/verdi-park-079.html","NightPasses ":"","MorningPasses ":"","CheapDay ":"L 4,80","OnlineTickets ":"www.cines-verdi.com","MapUrl ":"\"https://maps.google.com/maps/api/staticmap?zoom=13&size=478x220&markers=color:red|41.404335,2.157869&mobile=true&sensor=false\" alt=\"googlemaps - Gran Via de les Corts Catalanes. 08001 Barcelona\"","TownId":"892","Town":"                                                Barcelona                                                 (Barcelona)                                            ","Latitude":"41.404335","Longitude":"2.157869"}
{"_id":{"$oid":"5bacec4cee00c4461096fb06"},"Id":"152","Name":"Yelmo Cines Abrera 3D","Tag":"yelmo-cines-abrera-3d","Address":"Montserrat Centre (Hostal del Pi 4)   Abrera   (Barcelona) ","Telephone":"937707012","Url":"https://cartelera.elperiodico.com/cines/abrera/yelmo-cines-abrera-3d-080.html","NightPasses ":"VSP","MorningPasses ":"DF","CheapDay ":"M 4,70","OnlineTickets ":"","MapUrl ":"\"https://maps.google.com/maps/api/staticmap?zoom=13&size=478x220&markers=color:red|41.509041,1.899991&mobile=true&sensor=false\" alt=\"googlemaps - Gran Via de les Corts Catalanes. 08001 Barcelona\"","TownId":"872","Town":"                                                Abrera                                                 (Barcelona)                                            ","Latitude":"41.509041","Longitude":"1.899991"}
{"_id":{"$oid":"5bacec4cee00c4461096fb07"},"Id":"153","Name":"Yelmo Cines Baricentro","Tag":"yelmo-cines-baricentro","Address":"CC Baricentro   Barberà del Vallès   (Barcelona) ","Telephone":"902220922","Url":"https://cartelera.elperiodico.com/cines/barbera-del-vallas/yelmo-cines-baricentro-081.html","NightPasses ":"S","MorningPasses ":"DF","CheapDay ":"L 5,10","OnlineTickets ":"","MapUrl ":"\"https://maps.google.com/maps/api/staticmap?zoom=13&size=478x220&markers=color:red|41.507378,2.138665&mobile=true&sensor=false\" alt=\"googlemaps - Gran Via de les Corts Catalanes. 08001 Barcelona\"","TownId":"891","Town":"                                                Barberà del Vallès                                                 (Barcelona)                                            ","Latitude":"41.507378","Longitude":"2.138665"}
{"_id":{"$oid":"5bacec4cee00c4461096fb08"},"Id":"154","Name":"Yelmo Cines Icaria","Tag":"yelmo-cines-icaria","Address":"902220922   Barcelona   (Barcelona) ","Telephone":"902220922","Url":"https://cartelera.elperiodico.com/cines/barcelona/yelmo-cines-icaria-082.html","NightPasses ":"VS","MorningPasses ":"VSDF","CheapDay ":"L 5,50","OnlineTickets ":"www.entradas.com","MapUrl ":"\"https://maps.google.com/maps/api/staticmap?zoom=13&size=478x220&markers=color:red|41.390240,2.198914&mobile=true&sensor=false\" alt=\"googlemaps - Gran Via de les Corts Catalanes. 08001 Barcelona\"","TownId":"892","Town":"                                                Barcelona                                                 (Barcelona)                                            ","Latitude":"41.390240","Longitude":"2.198914"}
{"_id":{"$oid":"5bacec4cee00c4461096fb09"},"Id":"556","Name":"Yelmo Cines Sant Cugat 3D","Tag":"yelmo-cines-sant-cugat-3d","Address":"CC Sant Cugat (Av. Via Augusta 2-14)   Sant Cugat del Vallès   (Barcelona) ","Telephone":"902220922","Url":"https://cartelera.elperiodico.com/cines/sant-cugat-del-vallas/yelmo-cines-sant-cugat-3d-083.html","NightPasses ":"VSP","MorningPasses ":"SDF","CheapDay ":"LX","OnlineTickets ":"www.entradas.com","MapUrl ":"","TownId":"1078","Town":"                                                Sant Cugat del Vallès                                                 (Barcelona)                                            ","Latitude":"41.483318","Longitude":"2.046354"}
{"_id":{"$oid":"5bad4bc9460f8027246eaa44"},"Id":null,"Name":"dasd","Tag":"sadsa","Address":"asda","Telephone":"asdas","Url":"asds","Latitude":"asd","Longitude":"asd","MorningPasses":"asd","CheapDay":"asd","OnlineTickets":"ad","MapUrl":"asd","TownId":"asd","Town":"asd","__v":{"$numberInt":"0"}}
